City_ID,City,Lat,Lng,Max Temp,Humidity,Cloudiness,Wind Speed,Country,Date
0,bilibino,68.0546,166.4372,268.16,80,94,1.1,RU,1683501747
1,georgetown,5.4112,100.3354,300.11,94,20,1.03,MY,1683501727
2,bethel,41.3712,-73.414,294.24,51,91,1.51,US,1683501725
3,wailua homesteads,22.0669,-159.378,300.39,66,20,7.2,US,1683501751
4,krasnyy chikoy,50.3643,108.7512,284.62,46,14,0.7,RU,1683502299
5,richards bay,-28.783,32.0377,293.44,91,96,2.31,ZA,1683502299
6,port alfred,-33.5906,26.891,289.79,79,99,2.12,ZA,1683502299
7,iqaluit,63.7506,-68.5145,270.0,68,20,5.66,CA,1683502299
8,vadso,70.0744,29.7487,277.24,81,75,3.6,NO,1683502300
9,chonchi,-42.6128,-73.8092,281.55,97,46,0.47,CL,1683502300
10,lebu,-37.6167,-73.65,284.57,74,34,7.68,CL,1683502300
11,olonkinbyen,70.9221,-8.7187,274.44,100,100,3.12,SJ,1683502300
12,college,64.8569,-147.8028,285.12,45,75,2.57,US,1683502300
13,kodiak,57.79,-152.4072,279.88,65,100,5.14,US,1683501792
14,saint-pierre,-21.3393,55.4781,296.97,73,0,3.09,RE,1683501544
15,kabalo,-6.05,26.9167,294.09,90,7,1.72,CD,1683502301
16,hermanus,-34.4187,19.2345,287.76,84,15,4.24,ZA,1683501745
17,edinburgh of the seven seas,-37.0676,-12.3116,287.71,65,39,2.36,SH,1683501787
18,saipan,15.1355,145.701,302.54,100,40,4.63,MP,1683501609
19,greenville,35.6127,-77.3663,300.24,44,40,5.14,US,1683502302
20,san jose del guaviare,2.5729,-72.6459,298.93,81,65,0.94,CO,1683502303
21,igarka,67.4667,86.5833,266.63,86,100,4.73,RU,1683501820
22,santa ana,33.7456,-117.8678,297.82,54,20,5.66,US,1683502303
23,broken hill,-31.95,141.4333,280.19,58,0,5.83,AU,1683501787
24,uturoa,-16.7333,-151.4333,301.05,76,49,5.79,PF,1683501750
25,tazacorte,28.629,-17.9293,294.34,67,20,10.29,ES,1683501862
26,maun,-19.9833,23.4167,290.91,35,2,2.71,BW,1683502304
27,margaret river,-33.95,115.0667,290.32,53,92,7.46,AU,1683501520
28,carnarvon,-24.8667,113.6333,293.98,56,11,5.13,AU,1683501738
29,grytviken,-54.2811,-36.5092,274.98,88,85,6.77,GS,1683501717
30,punta arenas,-53.15,-70.9167,282.21,71,75,10.29,CL,1683501764
31,avarua,-21.2078,-159.775,300.18,83,75,3.09,CK,1683501729
32,ola,59.5833,151.2833,274.1,87,45,1.91,RU,1683501936
33,vitebsk,55.1905,30.2033,272.99,68,13,2.51,BY,1683502306
34,walvis bay,-22.9575,14.5053,285.98,93,0,1.54,NA,1683501746
35,susuman,62.7833,148.1667,272.85,73,45,1.38,RU,1683501783
36,salinas,36.6777,-121.6555,293.7,59,0,7.2,US,1683502307
37,puerto natales,-51.7236,-72.4875,279.44,86,72,1.85,CL,1683501428
38,waitangi,-43.9535,-176.5597,288.61,94,100,3.13,NZ,1683501717
39,kone,-21.0595,164.8658,300.11,64,56,1.38,NC,1683501780
40,hamilton,39.1834,-84.5333,295.5,81,0,3.09,US,1683501882
41,ushuaia,-54.8,-68.3,280.96,76,75,2.57,AR,1683501521
42,puerto baquerizo moreno,-0.9,-89.6,299.55,85,62,5.2,EC,1683501743
43,whitehorse,60.7161,-135.0538,287.58,26,40,4.63,CA,1683501528
44,port-aux-francais,-49.35,70.2167,277.24,64,96,11.93,TF,1683501778
45,puerto ayora,-0.7393,-90.3518,299.57,95,59,1.34,EC,1683501736
46,canavieiras,-15.675,-38.9472,295.64,92,3,2.61,BR,1683502310
47,koulikoro,14.0,-7.75,304.91,32,100,2.9,ML,1683502311
48,sao sebastiao,-23.76,-45.4097,296.05,92,72,3.65,BR,1683502311
49,namibe,-15.1961,12.1522,297.18,63,10,2.19,AO,1683501715
50,maumere,-8.6199,122.2111,300.92,81,63,3.48,ID,1683502311
51,kerikeri,-35.2268,173.9474,292.54,94,97,2.24,NZ,1683501987
52,albany,42.6001,-73.9662,293.39,49,97,2.9,US,1683502232
53,nuuk,64.1835,-51.7216,275.49,80,20,2.06,GL,1683501503
54,kapa'a,22.0752,-159.319,301.14,66,20,7.2,US,1683501816
55,invercargill,-46.4,168.35,287.04,72,99,1.53,NZ,1683501809
56,chibougamau,49.9168,-74.3659,283.94,30,75,5.66,CA,1683501561
57,tukrah,32.5341,20.5791,290.16,72,0,2.36,LY,1683502313
58,labasa,-16.4167,179.3833,301.18,69,0,2.29,FJ,1683502314
59,bredasdorp,-34.5322,20.0403,286.11,90,9,1.95,ZA,1683501522
60,sitka,57.0531,-135.33,283.09,62,75,3.6,US,1683501724
61,west island,-12.1568,96.8225,300.14,89,40,1.03,CC,1683501523
62,keflavik,64.0049,-22.5624,283.1,93,100,7.72,IS,1683501749
63,adamstown,-25.066,-130.1015,294.64,58,100,10.22,PN,1683502159
64,east london,-33.0153,27.9116,292.23,69,100,2.7,ZA,1683501774
65,papatowai,-46.5619,169.4708,290.39,58,100,0.33,NZ,1683502317
66,nicosia,35.1667,33.3667,290.2,82,75,2.57,CY,1683502172
67,haiku-pauwela,20.9219,-156.3051,300.16,59,40,11.32,US,1683501775
68,hobyo,5.3505,48.5268,300.43,84,68,9.98,SO,1683501760
69,faya-largeau,17.9257,19.1043,301.73,17,0,9.6,TD,1683502318
70,eforie sud,44.0229,28.6494,282.6,74,59,1.54,RO,1683502318
71,ust-nera,64.5667,143.2,275.18,95,100,2.91,RU,1683501747
72,thompson,55.7435,-97.8558,293.24,28,20,3.09,CA,1683502223
73,geraldton,-28.7667,114.6,293.38,49,75,8.75,AU,1683501768
74,tiksi,71.6872,128.8694,257.48,88,34,4.48,RU,1683501725
75,gamba,-2.65,10.0,299.18,92,62,2.1,GA,1683501860
76,port lincoln,-34.7333,135.8667,286.84,63,70,3.84,AU,1683501778
77,at taj,24.2049,23.2857,292.93,31,6,4.19,LY,1683501817
78,ilulissat,69.2167,-51.1,273.16,86,100,1.54,GL,1683502320
79,srikakulam,18.3,83.9,301.43,83,25,1.74,IN,1683502320
80,linqiong,30.4159,103.4609,289.05,89,100,0.32,CN,1683502320
81,jarwal,27.1667,81.55,299.83,34,7,2.67,IN,1683502321
82,charles city,43.0664,-92.6724,298.0,52,0,5.14,US,1683502321
83,gananoque,44.3334,-76.1661,288.19,81,100,1.91,CA,1683502321
84,monrovia,6.3005,-10.7969,298.02,82,60,3.24,LR,1683502322
85,hugo,45.16,-92.9933,297.96,50,40,2.57,US,1683502102
86,brisas de zicatela,15.8369,-97.0419,304.44,66,0,3.09,MX,1683501841
87,yellowknife,62.456,-114.3525,291.44,29,0,5.66,CA,1683501735
88,pak phanang,8.3511,100.202,300.16,87,100,1.36,TH,1683502323
89,nadym,65.5333,72.5167,274.26,99,100,3.15,RU,1683501837
90,saint-philippe,-21.3585,55.7679,296.92,84,100,4.41,RE,1683501863
91,blackmans bay,-43.0167,147.3167,282.44,73,89,2.84,AU,1683501710
92,fale old settlement,-9.3852,-171.2468,302.19,75,45,4.47,TK,1683501744
93,al burayqah,30.4062,19.5739,292.31,75,51,3.63,LY,1683502324
94,port macquarie,-31.4333,152.9167,289.2,31,3,3.84,AU,1683502262
95,qaqortoq,60.7167,-46.0333,274.78,81,100,1.4,GL,1683502324
96,island harbour,50.724,-1.2758,285.36,94,100,0.45,GB,1683502325
97,kitimat,54.0524,-128.6534,288.66,50,100,0.45,CA,1683502203
98,isafjordur,66.0755,-23.124,279.42,93,97,2.25,IS,1683501754
99,yaren,-0.5472,166.916,301.89,75,54,2.71,NR,1683502326
100,al jawf,29.5,38.75,292.92,44,0,8.06,SA,1683502019
101,alofi,-19.0595,-169.9187,301.09,74,11,2.57,NU,1683501892
102,eyl,7.9803,49.8164,302.02,71,96,4.4,SO,1683501785
103,guantanamo,20.1444,-75.2092,299.91,95,88,0.9,CU,1683502326
104,quellon,-43.1167,-73.6167,280.29,93,75,0.0,CL,1683501781
105,hami,42.8,93.45,283.04,30,2,2.02,CN,1683501585
106,sao jose da coroa grande,-8.8978,-35.1478,298.59,78,9,3.15,BR,1683501753
107,yanggu,36.1106,115.7753,290.82,32,100,1.32,CN,1683502328
108,khanty-mansiysk,61.0042,69.0019,277.21,93,40,8.05,RU,1683502213
109,vrangel',42.7297,133.0839,282.53,56,2,0.82,RU,1683501995
110,port alberni,49.2413,-124.8028,290.86,59,96,3.58,CA,1683502247
111,tolanaro,-25.0319,46.9987,293.56,90,0,4.01,MG,1683501518
112,betio village,1.358,172.9211,305.17,79,61,6.15,KI,1683502027
113,afaahiti,-17.75,-149.2833,303.08,76,79,6.57,PF,1683501729
114,ashmyany,54.425,25.9378,277.15,65,5,2.24,BY,1683502329
115,lashio,22.9333,97.75,295.14,49,1,0.51,MM,1683502329
116,constitucion,-35.3333,-72.4167,286.68,77,72,4.74,CL,1683501824
117,ivins,37.1686,-113.6794,297.41,20,44,3.13,US,1683502330
118,okhotsk,59.3833,143.3,275.48,80,21,2.17,RU,1683501821
119,la passe,45.5549,-0.8967,287.58,90,53,3.06,FR,1683501534
120,cherdakly,54.3594,48.845,276.12,70,0,3.0,RU,1683502331
121,utrik,11.2278,169.8474,300.42,81,90,8.33,MH,1683501834
122,weno,7.4515,151.8468,303.12,74,75,3.6,FM,1683501815
123,cadale,2.7603,46.3222,300.45,81,11,7.89,SO,1683501782
124,salym,60.0625,71.4789,278.89,66,65,5.63,RU,1683502332
125,alta,69.9689,23.2717,277.74,65,100,3.6,NO,1683502008
126,dudinka,69.4058,86.1778,258.73,88,93,4.25,RU,1683501802
127,badger,64.8,-147.5333,285.08,40,75,2.57,US,1683502332
128,petropavlovsk-kamchatsky,53.0452,158.6483,281.48,46,75,4.0,RU,1683501734
129,ribeira grande,38.5167,-28.7,291.36,97,100,11.62,PT,1683501742
130,berezovo,63.9381,65.0419,270.87,84,98,3.34,RU,1683502333
131,san patricio,28.017,-97.5169,301.12,67,96,7.11,US,1683501787
132,mae hong son,19.3003,97.9685,304.23,62,20,2.06,TH,1683502334
133,newman,37.3138,-121.0208,297.17,55,100,1.34,US,1683501835
134,basni,27.1667,73.65,300.74,24,2,4.8,IN,1683502335
135,fada,9.5667,8.3,297.62,65,66,2.88,NG,1683501921
136,labrador city,52.9463,-66.9114,275.1,60,75,3.09,CA,1683501770
137,nova olimpia,-14.7972,-57.2881,297.65,86,40,0.87,BR,1683502336
138,brookings,44.3114,-96.7984,295.58,49,0,4.12,US,1683501577
139,ulaangom,49.9811,92.0667,279.69,82,100,6.15,MN,1683502337
140,dawei,14.0833,98.2,301.57,78,69,1.17,MM,1683502337
141,san antonio de pale,-1.4014,5.6325,301.61,76,82,3.88,GQ,1683501832
142,terrace,54.5163,-128.6035,287.1,47,75,3.09,CA,1683502297
143,anadyr,64.75,177.4833,272.43,86,40,9.0,RU,1683501754
144,cabo san lucas,22.8909,-109.9124,303.76,49,75,2.06,MX,1683501796
145,gubkinskiy,64.434,76.5026,279.87,88,100,9.53,RU,1683502339
146,batalha,-9.6778,-37.1247,295.99,87,4,2.32,BR,1683502340
147,klyuchi,52.2667,79.1667,289.5,35,2,0.75,RU,1683502340
148,bereznik,62.8551,42.7072,270.47,97,41,1.92,RU,1683502340
149,hawaiian paradise park,19.5933,-154.9731,299.88,73,75,7.72,US,1683502341
150,port elizabeth,-33.918,25.5701,291.31,82,75,2.57,ZA,1683502341
151,ciudad constitucion,25.0369,-111.6644,298.36,27,1,7.96,MX,1683502341
152,ancud,-41.8697,-73.8203,281.71,83,46,1.02,CL,1683501790
153,krasnyy yar,46.5331,48.3456,289.11,69,100,7.42,RU,1683502342
154,fisterra,42.9049,-9.2629,288.57,80,82,0.3,ES,1683501869
155,port mathurin,-19.6833,63.4167,298.86,72,1,10.28,MU,1683501815
156,page,36.9147,-111.4558,297.86,17,0,3.09,US,1683502342
157,korla,41.7597,86.1469,282.99,41,69,2.64,CN,1683502343
158,prince rupert,54.3161,-130.3201,284.2,68,75,1.54,CA,1683501868
159,guntakal junction,15.1667,77.3833,299.16,70,96,1.91,IN,1683502344
160,andergrove,-21.0833,149.1833,292.95,54,4,8.71,AU,1683501934
161,andkhoy,36.9529,65.1238,289.4,43,6,1.73,AF,1683502344
162,bozhou,33.8772,115.7703,290.43,52,100,2.59,CN,1683502345
163,la gi,10.6667,107.7833,302.43,76,100,2.32,VN,1683502345
164,ceelbuur,4.685,46.6176,299.38,71,32,7.14,SO,1683502345
165,ulsteinvik,62.3432,5.8487,282.46,66,43,0.89,NO,1683501938
166,gunjur,13.2019,-16.7339,297.19,83,0,2.57,GM,1683501789
167,pisco,-13.7,-76.2167,294.18,83,68,6.69,PE,1683501869
168,udachny,66.4167,112.4,264.51,56,54,3.64,RU,1683502346
169,belaya kholunitsa,58.84,50.8528,270.62,87,18,3.16,RU,1683502346
170,jamestown,42.097,-79.2353,291.71,78,100,1.54,US,1683501792
171,berezovyy,51.6667,135.7,286.04,39,5,1.57,RU,1683502007
172,baukau,51.5526,7.2042,289.29,79,100,1.34,DE,1683502347
173,portland,45.5234,-122.6762,292.27,49,40,1.79,US,1683501547
174,minab,27.1467,57.0801,299.54,51,0,0.64,IR,1683502347
175,holbrook,40.8123,-73.0784,292.08,71,100,6.17,US,1683502348
176,palpa,-14.5336,-75.1856,297.43,59,50,2.26,PE,1683502348
177,knyaze-volkonskoye,48.4642,135.4567,286.34,38,30,3.52,RU,1683502349
178,st. john's,47.5649,-52.7093,279.35,70,75,6.69,CA,1683501507
179,kargasok,59.0556,80.8572,285.71,51,90,4.8,RU,1683501979
180,cannonvale,-20.2833,148.7,294.81,57,6,9.32,AU,1683502349
181,acarau,-2.8856,-40.12,298.94,80,91,4.83,BR,1683502328
182,vizinga,61.0749,50.1031,267.86,95,68,3.39,RU,1683502350
183,garoowe,8.4054,48.4845,299.54,68,98,4.17,SO,1683502350
184,veraval,20.9,70.3667,300.28,74,9,5.24,IN,1683502350
185,yuzhno-kurilsk,44.0306,145.8556,275.59,90,100,2.67,RU,1683501872
186,kapuskasing,49.4169,-82.4331,289.2,33,20,5.14,CA,1683502351
187,kununurra,-15.7667,128.7333,297.14,31,64,7.72,AU,1683501570
188,tsiombe,-25.3,45.4833,293.62,77,0,1.66,MG,1683502351
189,tamandare,-8.7597,-35.1047,298.44,79,12,2.72,BR,1683501839
190,benguela,-12.5763,13.4055,298.43,85,11,0.29,AO,1683501765
191,saldanha,-33.0117,17.9442,288.62,87,15,2.3,ZA,1683501559
192,shimoda,34.6667,138.95,292.35,95,100,5.11,JP,1683501977
193,al hawatah,13.4167,34.6333,305.68,12,36,3.52,SD,1683502352
194,fort mcmurray,56.7268,-111.381,289.92,33,100,5.14,CA,1683501590
195,bluefields,12.0137,-83.7635,302.19,74,75,3.09,NI,1683502353
196,nadi,-17.8,177.4167,302.15,74,40,4.12,FJ,1683502353
197,hilo,19.7297,-155.09,300.0,73,75,7.72,US,1683501588
198,horizon city,31.6926,-106.2075,303.98,7,0,5.2,US,1683502354
199,altamira,-3.2033,-52.2064,297.9,87,86,0.83,BR,1683501899
200,stanley,54.868,-1.6985,284.7,93,93,0.0,GB,1683502354
201,barentu,15.1139,37.5928,300.35,34,53,1.79,ER,1683502354
202,benghazi,32.1167,20.0667,291.4,75,1,4.79,LY,1683502355
203,boulazac,45.1167,0.75,284.52,84,2,1.71,FR,1683502355
204,puerto aysen,-45.4,-72.7,278.16,96,26,1.64,CL,1683501845
205,taroa,8.7058,171.2275,301.06,81,64,6.93,MH,1683502355
206,nar'yan-mar,67.6713,53.087,264.56,95,25,3.86,RU,1683501875
207,atafu village,-8.5421,-172.5159,302.28,77,12,5.33,TK,1683501517
208,butembo,0.15,29.2833,287.43,92,37,1.24,CD,1683502356
209,kabin buri,13.9511,101.7177,302.57,72,49,1.15,TH,1683502356
210,jayapura,-2.5333,140.7,300.81,72,93,1.17,ID,1683502357
211,windhoek,-22.5594,17.0832,288.94,45,0,2.57,NA,1683502357
212,meru,0.0463,37.6559,288.03,93,46,1.4,KE,1683502357
213,nouadhibou,20.931,-17.0347,294.14,73,0,9.77,MR,1683502357
214,vitali,7.3711,122.2886,302.34,75,61,0.82,PH,1683502358
215,kailua-kona,19.6406,-155.9956,301.13,73,75,4.12,US,1683501955
216,bardai,11.65,7.2333,301.89,11,70,3.2,NG,1683501973
217,churachandpur,24.3333,93.6667,291.26,63,0,1.22,IN,1683502359
218,ebon,4.582,168.6964,301.63,79,100,5.58,MH,1683501838
219,adoru,6.9766,7.1627,296.97,91,86,1.79,NG,1683502359
220,elliot lake,46.3834,-82.6331,283.51,92,100,2.53,CA,1683502359
221,surman,32.7567,12.5716,301.85,22,100,5.51,LY,1683502359
222,mildura,-34.2,142.15,284.87,48,3,6.64,AU,1683502360
223,mar del plata,-38.0023,-57.5575,288.2,93,100,4.12,AR,1683501802
224,antofagasta,-23.65,-70.4,288.75,83,15,2.72,CL,1683502007
225,bloemhof,-27.6469,25.607,285.25,92,88,3.38,ZA,1683502360
226,el alto,-4.2714,-81.2147,299.96,75,86,6.03,PE,1683502360
227,colonia,50.9333,6.95,289.29,88,100,1.03,DE,1683501757
228,merizo village,13.2658,144.6691,302.46,85,24,4.7,GU,1683501986
229,natal,-5.795,-35.2094,300.27,83,20,3.6,BR,1683502361
230,chukhloma,58.7525,42.6825,270.71,84,76,2.15,RU,1683502361
231,illizi,26.4833,8.4667,301.04,9,90,3.77,DZ,1683501819
232,port de pollenca,39.9075,3.0814,292.22,82,71,0.84,ES,1683502362
233,muli,2.9167,73.5667,301.62,73,100,7.05,MV,1683502363
234,puerto gaitan,4.3133,-72.0816,303.66,55,54,1.2,CO,1683502111
235,mugia,43.1041,-9.2179,288.66,80,82,1.68,ES,1683502022
236,antalaha,-14.9003,50.2788,295.62,86,4,3.86,MG,1683502363
237,aasiaat,68.7098,-52.8699,271.36,88,84,4.65,GL,1683501784
238,belmonte,-15.8631,-38.8828,297.8,83,2,5.1,BR,1683501804
239,lompoc,34.6391,-120.4579,296.31,74,0,10.28,US,1683502365
240,eureka,40.8021,-124.1637,289.63,63,98,4.47,US,1683502283
241,turpan,42.9333,89.1667,289.63,24,36,1.15,CN,1683502366
242,tshabong,-26.05,22.45,289.43,66,0,3.11,BW,1683502366
243,katsuren-haebaru,26.3369,127.8719,296.16,90,75,5.14,JP,1683501828
244,isetskoye,56.4858,65.3226,278.35,46,73,4.5,RU,1683502367
245,kaa-khem,51.6833,94.7333,284.89,50,81,1.37,RU,1683502367
246,mpanda,-6.3655,31.0409,290.51,94,10,0.73,TZ,1683502367
247,klina,42.6217,20.5778,287.12,80,83,1.04,XK,1683502368
248,salida,37.7058,-121.0849,296.42,46,75,3.6,US,1683502082
249,polyarnyy,69.1989,33.4478,273.03,90,97,4.77,RU,1683501814
250,kavaratti,10.5669,72.642,301.89,66,64,5.18,IN,1683501805
251,papao,-17.75,-149.55,303.97,76,50,5.32,PF,1683502369
252,tarawa,1.419,172.984,305.2,70,75,5.14,KI,1683502369
253,kedougou,12.5579,-12.1743,302.55,50,100,4.56,SN,1683502370
254,yeppoon,-23.1333,150.7333,291.03,28,62,5.88,AU,1683502370
255,al qadarif,14.0349,35.3834,303.75,21,46,3.32,SD,1683502370
256,la cruz,23.9167,-106.9,303.95,33,100,6.25,MX,1683502370
257,enewetak,11.3474,162.3373,300.52,77,86,7.34,MH,1683502371
258,aykhal,66.0,111.5,264.17,83,65,2.41,RU,1683502371
259,longyearbyen,78.2186,15.6401,272.06,86,75,3.09,SJ,1683502371
260,zarghun shahr,32.8473,68.4457,282.68,37,1,6.85,AF,1683502371
261,la rinconada,37.4873,-5.9826,294.25,57,64,1.45,ES,1683502372
262,bir el hafey,34.9321,9.1932,296.1,38,100,3.25,TN,1683502372
263,codrington,-38.2667,141.9667,287.0,64,92,5.97,AU,1683502372
264,auki,-8.7676,160.7034,302.77,72,65,1.41,SB,1683502372
265,puquio,-14.7,-74.1333,283.84,81,75,1.69,PE,1683502372
266,lata,40.1629,-8.3327,287.55,88,33,1.13,PT,1683501906
267,howrah,22.5892,88.3103,303.15,79,20,3.09,IN,1683502373
268,calvinia,-31.4707,19.776,285.16,46,0,2.46,ZA,1683502373
269,midvagur,62.0511,-7.1939,283.61,93,100,6.17,FO,1683502374
270,ajuy,11.1724,123.0197,301.86,75,93,1.59,PH,1683502374
271,severo-yeniseyskiy,60.3725,93.0408,277.69,90,84,2.5,RU,1683501952
272,arraial do cabo,-22.9661,-42.0278,297.11,86,28,6.73,BR,1683501829
273,vovchans'k,50.3003,36.9467,278.82,60,100,5.51,UA,1683502375
274,mossel bay,-34.1831,22.146,287.11,83,2,4.03,ZA,1683502375
275,ulladulla,-35.35,150.4667,284.69,57,100,4.09,AU,1683502375
276,toliara,-23.35,43.6667,294.99,72,17,1.08,MG,1683502375
277,madera,37.1666,-119.8343,297.35,42,88,3.2,US,1683502376
278,katima mulilo,-17.5,24.2667,289.39,45,1,2.66,NA,1683502376
279,kill devil hills,36.0307,-75.676,298.16,55,0,7.2,US,1683502376
280,magadan,59.5667,150.8,274.13,87,47,2.04,RU,1683501710
281,dunedin,-45.8742,170.5036,289.71,72,100,1.79,NZ,1683502085
282,sukuta,13.4103,-16.7082,297.16,83,0,2.57,GM,1683502377
283,cerritos,33.8583,-118.0648,298.04,53,20,5.66,US,1683502188
284,danane,7.2596,-8.155,296.48,78,73,0.48,CI,1683502377
285,upington,-28.4478,21.2561,290.36,36,0,2.06,ZA,1683502173
286,safi,32.1667,-8.8333,288.96,85,42,7.0,MA,1683502377
287,jiuquan,39.7432,98.5174,281.02,61,100,4.67,CN,1683502378
288,agat village,13.3886,144.6585,302.67,80,0,4.12,GU,1683501830
289,libreville,0.3925,9.4537,298.16,88,20,1.54,GA,1683502378
290,iskateley,67.6803,53.1512,264.56,95,24,3.52,RU,1683502378
291,jebel,45.5556,21.2136,286.28,97,100,3.68,RO,1683502379
292,daru,-9.0763,143.2092,300.92,85,62,5.53,PG,1683501851
293,rodolfo sanchez taboada,31.7167,-116.5667,291.54,67,4,3.58,MX,1683502379
294,saudarkrokur,65.7461,-19.6394,281.03,88,97,1.17,IS,1683502379
295,bogandinskiy,56.8937,65.8938,277.33,42,51,5.01,RU,1683502379
296,bonthe,7.5264,-12.505,300.52,83,61,2.73,SL,1683502380
297,freeport,40.6576,-73.5832,295.35,71,0,6.17,US,1683502290
298,xiva,41.3783,60.3639,287.14,38,1,1.46,UZ,1683502380
299,bechar,31.6167,-2.2167,298.33,18,0,5.66,DZ,1683502380
300,hadibu,12.65,54.0333,300.98,55,3,1.26,YE,1683502381
301,karmaskaly,54.3709,56.1837,273.1,63,62,1.51,RU,1683502381
302,aleksandrov gay,50.147,48.5704,281.88,41,100,7.45,RU,1683502381
303,la ronge,55.1001,-105.2842,290.27,27,75,5.14,CA,1683501809
304,shache,38.4167,77.2406,284.32,27,100,2.97,CN,1683502382
305,qarauyl,48.9451,79.255,285.5,49,0,2.93,KZ,1683502382
306,san rafael del sur,11.8485,-86.4384,307.69,34,92,6.35,NI,1683502382
307,lazaro cardenas,17.9583,-102.2,304.16,52,12,4.92,MX,1683501587
308,auxerre,47.8,3.5667,285.17,97,15,1.68,FR,1683502383
309,hithadhoo,-0.6,73.0833,301.59,72,12,7.4,MV,1683502383
310,xilin hot,43.9667,116.0333,283.71,31,77,0.88,CN,1683501867
311,bure,10.7,37.0667,290.12,76,100,1.79,ET,1683502383
312,bulawayo,-20.15,28.5833,286.95,51,3,3.11,ZW,1683502384
313,bikenibeu village,1.3673,173.1241,305.13,70,75,5.14,KI,1683502384
314,aktau,43.65,51.2,287.47,85,100,3.91,KZ,1683502384
315,kathu,7.9178,98.3332,303.54,99,100,1.31,TH,1683502385
316,hotan,37.0997,79.9269,283.71,24,100,3.0,CN,1683501930
317,pangody,65.85,74.4859,275.0,100,100,10.69,RU,1683502385
318,velikiy ustyug,60.7644,46.3106,270.56,91,82,2.21,RU,1683502385
319,tura,25.5198,90.2201,296.2,45,8,2.31,IN,1683502267
320,opuwo,-18.0607,13.84,291.72,35,13,1.51,NA,1683502386
321,crane,31.3974,-102.3501,306.01,10,87,5.28,US,1683502386
322,sinabang,2.4803,96.3801,299.27,86,100,7.32,ID,1683501904
323,ulety,51.3572,112.4849,281.92,36,45,1.42,RU,1683502388
324,piti village,13.4626,144.6933,302.64,80,0,4.12,GU,1683502389
325,luderitz,-26.6481,15.1594,287.56,57,0,4.9,NA,1683502390
326,magadi,12.9667,77.2333,294.7,86,95,0.83,IN,1683502390
327,lerwick,60.1545,-1.1494,281.15,94,100,9.72,GB,1683501804
328,talnakh,69.4865,88.3972,259.26,82,94,1.89,RU,1683502391
329,pindushi,62.9152,34.58,274.38,80,67,1.88,RU,1683502391
330,kodinsk,58.6881,99.1844,282.05,73,62,1.03,RU,1683502391
331,talcahuano,-36.7167,-73.1167,285.97,88,0,1.03,CL,1683502385
332,calatagan,13.8833,120.65,301.66,73,38,3.09,PH,1683502392
333,kulhudhuffushi,6.6221,73.07,301.95,74,92,6.06,MV,1683501859
334,cuamba,-14.8031,36.5372,288.66,89,3,1.29,MZ,1683502392
335,jayrud,33.8074,36.7404,283.85,66,0,1.74,SY,1683502392
336,kayalpattinam,8.5667,78.1167,299.75,79,97,1.65,IN,1683502393
337,annau,37.8876,58.516,288.87,63,1,4.12,TM,1683502393
338,ca mau,9.1769,105.15,302.21,72,93,2.34,VN,1683502393
339,dihok,36.8695,42.994,288.75,47,1,1.88,IQ,1683502393
340,kyzylorda,44.8528,65.5092,285.16,30,0,3.0,KZ,1683501835
341,vorgashor,67.5833,63.95,264.25,91,100,7.95,RU,1683501524
342,taksimo,56.3444,114.8794,276.62,50,77,2.14,RU,1683502394
343,valle de la pascua,9.2155,-66.0073,305.63,40,92,3.7,VE,1683502394
344,rongelap,11.1635,166.8941,300.52,79,71,7.89,MH,1683502395
345,nemuro,43.3236,145.575,274.94,95,100,5.37,JP,1683501825
346,kalispell,48.1958,-114.3129,286.14,66,20,2.06,US,1683502207
347,radyvyliv,50.1299,25.2558,276.6,97,100,6.58,UA,1683502396
348,prineville,44.2999,-120.8345,288.21,48,100,2.57,US,1683502396
349,pruzhany,52.5567,24.4644,275.1,70,3,3.07,BY,1683502396
350,nayoro,44.3506,142.4578,282.11,43,100,2.18,JP,1683502396
351,happy valley-goose bay,53.3168,-60.3315,274.32,86,100,1.03,CA,1683501801
352,wilhelmshaven,53.5167,8.1333,284.92,85,44,7.35,DE,1683502397
353,cole harbour,44.6724,-63.4751,284.81,79,34,3.09,CA,1683502397
354,revda,56.801,59.9303,272.83,74,4,5.37,RU,1683501868
355,opelousas,30.5335,-92.0815,300.09,78,0,3.6,US,1683502398
356,sanibel,26.449,-82.0223,302.18,57,40,8.55,US,1683502398
357,labuan bajo,-8.4964,119.8877,300.54,78,32,2.11,ID,1683502398
358,kirakira,-10.4544,161.9205,302.72,73,99,2.89,SB,1683501818
359,lensk,60.7253,114.9278,275.05,77,91,2.45,RU,1683502399
360,vorkuta,67.5,64.0,264.68,92,100,7.52,RU,1683501592
361,roma,43.2128,-75.4557,290.23,65,100,5.14,US,1683501664
362,lihue,21.9789,-159.3672,300.73,66,20,7.2,US,1683502400
363,inarajan village,13.2736,144.7484,302.69,90,27,4.86,GU,1683502400
364,tandil,-37.3217,-59.1332,285.75,90,100,5.88,AR,1683502400
365,lijiang,26.8688,100.2207,284.73,56,0,1.67,CN,1683502401
366,leava,-14.3,-178.1667,301.66,75,41,3.61,WF,1683502401
367,pangai,-19.8,-174.35,298.21,94,100,1.03,TO,1683501894
368,runaway bay,18.4596,-77.3357,299.37,81,61,2.35,JM,1683502402
369,isangel,-19.55,169.2667,300.21,83,20,0.0,VU,1683502402
370,la'ie,21.6477,-157.9253,302.13,71,96,9.27,US,1683502402
371,uren',57.4552,45.7852,271.5,74,17,2.43,RU,1683502403
372,whakatane,-37.9585,176.9854,293.02,92,61,3.58,NZ,1683502305
373,loiza,18.4313,-65.8802,301.75,73,40,4.12,PR,1683502403
374,jhargram,22.45,86.9833,302.54,33,1,2.07,IN,1683502403
375,taltal,-25.4,-70.4833,290.65,75,15,3.31,CL,1683502220
376,nachingwea,-10.3833,38.7667,292.01,93,15,0.94,TZ,1683502404
377,tomatlan,19.9333,-105.25,305.49,44,3,3.59,MX,1683502404
378,aras-asan,8.8908,126.3033,301.11,77,68,1.5,PH,1683502405
379,alice springs,-23.7,133.8833,281.9,46,8,3.6,AU,1683502405
380,coquimbo,-29.9533,-71.3436,287.0,94,0,1.54,CL,1683501829
381,yarrawonga,-36.0167,146.0,284.24,60,6,7.14,AU,1683502405
382,gadzhiyevo,69.2551,33.3362,272.75,91,97,4.98,RU,1683501725
383,harper,4.375,-7.7169,298.43,88,100,1.01,LR,1683502406
384,horta,38.5333,-28.6333,290.94,98,100,11.62,PT,1683502406
385,semnan,35.5729,53.3971,293.15,21,1,1.29,IR,1683502407
386,holualoa,19.6228,-155.9522,299.06,74,75,4.12,US,1683502407
387,tralee,52.2704,-9.7026,286.16,99,100,2.56,IE,1683501853
388,north platte,41.1239,-100.7654,288.21,78,100,5.66,US,1683502407
389,ak'ordat,15.5486,37.8867,302.3,34,31,0.33,ER,1683502408
390,al qubbah,32.7616,22.2424,286.13,66,0,3.1,LY,1683502408
391,east grand forks,47.93,-97.0245,284.28,93,100,5.14,US,1683502408
392,khandyga,62.6667,135.6,272.19,93,100,3.56,RU,1683501843
393,nha trang,12.25,109.1833,303.15,64,100,0.31,VN,1683502205
394,sinop,41.7711,34.8709,283.01,93,100,1.85,TR,1683501866
395,kabare,-2.4683,28.8242,289.18,98,70,0.52,CD,1683502410
396,tvoroyri,61.5556,-6.8111,280.96,98,98,9.28,FO,1683502411
397,puerto boyaca,5.9758,-74.5885,299.95,74,24,1.41,CO,1683502411
398,edd,13.9297,41.6925,303.02,77,66,0.95,ER,1683502412
399,peacehaven,50.7927,-0.0065,285.53,93,79,1.34,GB,1683502412
400,tazovsky,67.4667,78.7,268.41,95,100,11.1,RU,1683502413
401,pacaembu,-21.5622,-51.2606,295.23,73,33,2.74,BR,1683502413
402,salina,38.8403,-97.6114,308.16,28,0,9.26,US,1683502206
403,celinac,44.7228,17.3278,287.52,95,100,0.41,BA,1683502413
404,acapulco de juarez,16.8634,-99.8901,304.05,74,40,4.63,MX,1683502414
405,hell-ville,-13.4,48.2667,298.91,75,2,2.65,MG,1683502414
406,nishinoomote,30.7333,131.0,290.35,77,60,0.38,JP,1683502414
407,yingkou,40.6648,122.2283,288.58,49,29,3.32,CN,1683502414
408,ad dilam,23.9915,47.1627,303.38,18,6,2.96,SA,1683502415
409,errachidia,31.9275,-4.4285,298.18,14,0,6.69,MA,1683502415
410,akwanga,8.9167,8.3833,297.81,70,56,2.12,NG,1683502415
411,vredendal,-31.6683,18.5012,286.3,87,2,1.01,ZA,1683502416
412,atherton,53.5237,-2.4935,287.27,87,99,0.45,GB,1683502416
413,nuku'alofa,-21.1333,-175.2,299.34,89,75,3.09,TO,1683501882
414,ta`u,-14.2336,-169.5144,300.99,75,23,5.61,AS,1683502416
415,svetlyy,54.675,20.1347,279.24,75,3,3.98,RU,1683502416
416,farnborough,51.2942,-0.7557,285.9,73,93,3.6,GB,1683502417
417,antonio enes,-16.2325,39.9086,292.17,97,0,1.81,MZ,1683502417
418,nizhnesortymskiy,62.4397,71.7603,276.5,89,94,10.39,RU,1683502417
419,kislyakovskaya,46.4417,39.675,282.62,95,100,6.94,RU,1683502417
420,goz beida,13.95,20.55,302.27,38,88,2.57,TD,1683502418
421,hinatuan,8.3722,126.3342,301.9,72,81,2.05,PH,1683502418
422,djambala,-2.5447,14.7533,294.5,86,65,0.95,CG,1683502418
423,iwanai,42.9744,140.5089,282.42,75,100,1.69,JP,1683502418
424,kuanda,56.3161,116.0806,276.62,54,47,1.86,RU,1683502419
425,narvik,68.4384,17.4272,277.81,95,100,2.69,NO,1683501827
426,vila do maio,15.1333,-23.2167,296.59,83,6,7.19,CV,1683502419
427,kupang,-10.1667,123.5833,300.47,83,20,5.14,ID,1683502419
428,mo i rana,66.3128,14.1428,277.77,91,100,0.0,NO,1683501792
429,chui,-33.6971,-53.4616,288.83,88,100,1.4,UY,1683502420
430,hasaki,35.7333,140.8333,286.37,94,100,14.19,JP,1683502420
431,mount gambier,-37.8333,140.7667,284.79,74,96,3.52,AU,1683502004
432,nizhneudinsk,54.9076,99.0276,284.25,50,12,1.06,RU,1683502421
433,northam,51.0333,-4.2167,285.16,90,100,5.52,GB,1683502421
434,pauini,-7.7136,-66.9764,296.85,98,95,0.44,BR,1683502421
435,akureyri,65.6835,-18.0878,284.11,66,40,3.6,IS,1683501825
436,sao joao da barra,-21.6403,-41.0511,294.2,93,37,1.43,BR,1683502422
437,chatel-guyon,45.9167,3.0667,284.33,100,75,0.51,FR,1683502422
438,cabedelo,-6.9811,-34.8339,300.52,88,60,2.56,BR,1683502422
439,selfoss,63.9331,-20.9971,282.62,93,100,1.58,IS,1683502422
440,santa terezinha,-29.9002,-50.0904,294.22,97,100,3.23,BR,1683502423
441,almodovar del campo,38.7094,-4.1791,292.2,43,57,0.97,ES,1683502423
442,badagry,6.4167,2.8833,299.8,79,84,2.61,NG,1683502423
443,wenchang,30.904,118.4887,288.62,69,84,3.55,CN,1683502423
444,kachug,53.9606,105.8817,280.91,57,50,0.95,RU,1683502424
445,chimore,-16.9833,-65.1333,294.95,94,100,1.14,BO,1683502424
446,kirkuk,35.4681,44.3922,293.91,32,69,4.22,IQ,1683502424
447,nowshahr,36.649,51.496,291.12,94,100,2.06,IR,1683502424
448,saint-francois,46.4154,3.9054,286.84,94,0,1.54,FR,1683502424
449,kendari,-3.945,122.4989,298.0,96,100,0.74,ID,1683502425
450,yuscaran,13.9333,-86.85,304.73,31,83,4.09,HN,1683502425
451,baranchinskiy,58.1617,59.6991,271.96,72,52,5.39,RU,1683502425
452,queenstown,-31.8976,26.8753,285.12,92,100,1.65,ZA,1683502425
453,cagli,43.5457,12.6527,290.86,84,95,2.35,IT,1683502426
454,cheremukhovo,60.3484,59.9851,270.95,71,86,5.99,RU,1683502426
455,corn island,12.1694,-83.0418,300.72,70,100,6.59,NI,1683502158
456,silopi,37.2497,42.4694,286.8,48,1,0.8,TR,1683502426
457,berriane,32.8265,3.7669,298.6,31,34,10.77,DZ,1683502427
458,usinsk,65.9939,57.5281,265.33,93,100,8.63,RU,1683501920
459,pikalevo,59.5183,34.1664,271.33,90,52,2.01,RU,1683502427
460,phongsali,21.6833,102.1058,294.21,58,21,0.05,LA,1683502427
461,onega,63.9061,38.1404,271.94,79,11,2.85,RU,1683502427
462,birao,10.2849,22.7882,298.58,67,100,3.83,CF,1683502428
463,ambovombe,-25.1667,46.0833,293.5,78,0,2.13,MG,1683502428
464,fort pierce north,27.4736,-80.3593,298.16,60,20,5.66,US,1683502428
465,ust'-ilimsk,58.0006,102.6619,281.3,69,88,3.02,RU,1683502428
466,shalqar,47.8333,59.6,287.57,52,9,3.53,KZ,1683502429
467,waingapu,-9.6567,120.2641,299.42,85,42,6.09,ID,1683501905
468,mikuni,36.2171,136.1519,286.1,89,100,9.88,JP,1683502429
469,chengde,40.9725,117.9361,290.26,22,93,1.23,CN,1683502429
470,flying fish cove,-10.4217,105.6791,299.97,89,100,3.6,CX,1683502430
471,mukharram al fawqani,34.8151,37.0861,286.1,89,57,4.05,SY,1683502430
472,lethem,3.3803,-59.7968,300.77,72,92,4.07,GY,1683501898
473,constantia,44.1833,28.65,282.53,74,59,1.54,RO,1683502431
474,nsanje,-16.92,35.262,290.44,95,0,1.02,MW,1683502431
475,nova vicosa,-17.8919,-39.3719,295.23,92,2,1.27,BR,1683502431
476,katabu,-4.9333,122.5167,297.89,96,100,1.56,ID,1683502432
477,vila velha,-20.3297,-40.2925,297.12,89,20,2.06,BR,1683502432
478,deschutes river woods,43.9915,-121.3584,285.55,51,75,2.57,US,1683502432
479,mirpur sakro,24.5474,67.6277,299.65,79,0,5.81,PK,1683502433
480,vikhorevka,56.1201,101.1636,280.92,51,60,1.26,RU,1683502433
481,pasni,25.2631,63.471,302.51,40,0,1.8,PK,1683502434
482,itegem,51.1031,4.7294,288.87,91,61,1.47,BE,1683502435
483,znamensk,48.5842,45.7338,282.33,62,100,8.8,RU,1683502435
484,redondela,42.2834,-8.6096,289.4,84,0,1.03,ES,1683502435
485,ilha de mocambique,-15.0342,40.7358,292.43,94,2,2.12,MZ,1683502436
486,majuro,7.0897,171.3803,303.13,79,75,3.09,MH,1683502436
487,songling,31.1933,120.7176,288.86,66,98,3.66,CN,1683502436
488,robore,-18.3333,-59.75,298.13,76,100,1.33,BO,1683502436
489,isabela,6.7085,121.9711,300.18,76,100,5.36,PH,1683502437
490,tadine,-21.55,167.8833,299.57,61,53,1.01,NC,1683501925
491,apolinario saravia,-24.4328,-63.9954,290.32,76,0,2.21,AR,1683502437
492,fukuecho,32.6881,128.8419,288.35,67,75,10.29,JP,1683502438
493,ixtapa,20.7,-105.2,301.72,70,0,5.66,MX,1683502438
494,azul,-36.777,-59.8585,285.02,94,43,3.59,AR,1683502438
495,lagoa,39.05,-27.9833,290.1,95,100,8.32,PT,1683502013
496,ad dabbah,18.05,30.95,300.1,18,2,6.01,SD,1683502439
497,zelenchukskaya,43.858,41.5894,282.93,97,100,0.65,RU,1683502439
498,kattivakkam,13.2167,80.3167,300.41,85,99,3.39,IN,1683502440
499,fort bragg,35.139,-79.006,299.23,55,40,6.69,US,1683502440
500,grand-bassam,5.2118,-3.7388,300.13,79,98,2.3,CI,1683502440
501,xuanzhou,30.9525,118.7553,288.24,73,92,3.63,CN,1683502440
502,marsala,37.7966,12.4352,294.12,60,0,0.51,IT,1683502441
503,oneida,43.2001,-75.4663,288.04,83,100,2.74,US,1683502441
504,debark',13.1561,37.8981,288.87,49,76,2.6,ET,1683502441
505,nguigmi,14.2495,13.1092,301.61,20,92,3.61,NE,1683502441
506,brezina,33.0989,1.2608,292.5,41,0,8.26,DZ,1683502442
507,siocon,7.7061,122.1353,302.01,73,50,4.05,PH,1683502442
508,bereket,39.2446,55.5154,293.15,36,66,6.99,TM,1683502442
509,maribo,54.7766,11.5002,280.9,81,1,7.55,DK,1683502442
510,lewistown,40.5992,-77.5714,291.57,100,100,2.12,US,1683502443
511,staryy dobrotvir,50.2315,24.377,277.01,97,100,6.44,UA,1683502443
512,marka,1.7159,44.7717,299.77,86,5,7.32,SO,1683502443
513,akrehamn,59.2667,5.1833,285.29,47,100,7.2,NO,1683502443
514,el granada,37.5027,-122.4694,294.04,64,0,8.23,US,1683502444
515,port moresby,-9.4431,147.1797,301.83,79,40,2.57,PG,1683502173
516,las parejas,-32.6848,-61.5164,289.18,72,4,2.36,AR,1683502444
517,serov,59.6033,60.5787,271.85,64,40,5.03,RU,1683502444
518,paita,-5.0892,-81.1144,296.7,89,63,5.86,PE,1683502445
519,alvorada,-12.48,-49.1247,296.85,54,34,0.55,BR,1683502445
520,sao felix do xingu,-6.6447,-51.995,296.2,96,66,1.04,BR,1683501862
521,jaswantnagar,26.8786,78.9028,302.64,31,49,2.42,IN,1683502446
522,royston,52.0483,-0.0244,286.1,90,64,1.94,GB,1683502446
523,abomsa,9.9833,39.9833,294.39,69,72,2.86,ET,1683502446
524,gorontalo,0.5412,123.0595,300.64,87,100,1.15,ID,1683502447
525,selkirk,50.1436,-96.8845,287.23,69,100,3.58,CA,1683502447
526,yoloten,37.2989,62.3597,289.16,46,0,2.99,TM,1683502447
527,berbera,10.4396,45.0143,303.0,78,98,3.57,SO,1683502447
528,ukiah,39.1502,-123.2078,290.09,53,100,4.63,US,1683502381
529,cidreira,-30.1811,-50.2056,293.89,98,100,3.8,BR,1683502448
530,ketchikan,55.3422,-131.6461,285.41,58,75,6.69,US,1683502448
531,sao vicente,-23.9631,-46.3919,298.7,26,60,0.89,BR,1683502161
532,maroantsetra,-15.4333,49.7333,296.3,87,57,1.93,MG,1683502449
533,port hedland,-20.3167,118.5667,298.18,31,22,6.69,AU,1683502449
534,inongo,-1.95,18.2667,295.0,95,98,1.24,CD,1683502449
535,ikovka,55.6089,64.9375,278.09,47,68,3.52,RU,1683502449
536,howard springs,-12.497,131.047,298.64,48,56,6.78,AU,1683502450
537,zhaobaoshan,29.9695,121.6875,288.16,83,100,5.23,CN,1683502450
538,khorixas,-20.3667,14.9667,291.54,38,0,1.44,NA,1683502450
539,bubaque,11.2833,-15.8333,299.17,74,35,1.29,GW,1683502450
540,gebeit,21.0667,36.3167,294.83,40,0,1.72,SD,1683502451
541,bam,29.106,58.357,296.8,11,0,2.47,IR,1683502451
542,grand baie,-20.0182,57.5802,298.41,71,12,3.58,MU,1683502451
543,vallet,47.1667,-1.2667,286.79,96,75,2.76,FR,1683502452
544,balakhta,55.38,91.6,285.22,57,10,0.66,RU,1683502452
545,aswan,24.0934,32.907,296.76,25,0,4.12,EG,1683502452
546,ayr,55.4627,-4.6339,286.14,76,75,5.66,GB,1683502452
547,mamuju,-2.6748,118.8885,300.98,75,99,0.96,ID,1683502453
548,manaure,11.7751,-72.4445,299.21,88,99,12.97,CO,1683502453
549,touros,-5.1989,-35.4608,301.27,77,31,9.12,BR,1683502453
550,chetwayi,10.5333,76.05,299.32,83,100,1.47,IN,1683502453
551,sabang,5.8933,95.3214,300.2,83,94,7.75,ID,1683502454
552,chernyshevskiy,63.0128,112.4714,269.07,77,70,0.54,RU,1683502454
553,kittila,67.6647,24.8936,274.23,60,0,0.51,FI,1683502455
554,mount isa,-20.7333,139.5,288.02,31,11,6.69,AU,1683502455
555,ingeniero guillermo n. juarez,-23.9,-61.85,288.98,94,89,1.52,AR,1683502455
556,vilyuchinsk,52.9306,158.4028,282.3,73,15,0.96,RU,1683502457
557,saint croix,17.7397,-64.7388,299.4,78,40,4.63,VI,1683502457
558,todos santos,23.45,-110.2167,294.07,73,96,4.21,MX,1683502458
559,kyelang,32.5833,77.0333,265.37,85,62,2.32,IN,1683502458
560,marquette,46.5333,-87.6335,283.58,96,96,0.45,US,1683502458
561,mandali,33.7499,45.5541,297.97,24,59,5.86,IQ,1683502459
562,smithers,54.7804,-127.1743,286.33,54,40,3.6,CA,1683502450
563,oroquieta,8.4858,123.8044,302.8,71,73,0.99,PH,1683502459
564,kidal,18.4411,1.4078,306.43,20,63,1.97,ML,1683502460
565,mora,11.0461,14.1401,303.55,16,83,1.69,CM,1683502460
566,ierapetra,35.01,25.7353,291.01,57,9,0.89,GR,1683502460
567,sovetskoye,52.2861,85.4131,284.96,66,5,2.15,RU,1683502460
568,el calafate,-50.3408,-72.2768,279.59,69,71,2.64,AR,1683502461
569,payson,40.0444,-111.7321,290.32,39,75,2.24,US,1683502462
570,caleta de carquin,-11.0925,-77.6267,295.49,82,45,5.41,PE,1683502462
571,inyonga,-6.7167,32.0667,290.26,86,2,1.94,TZ,1683502462
572,ghat,24.9647,10.1728,299.4,10,100,3.49,LY,1683502463
573,flin flon,54.7682,-101.865,293.06,26,40,3.09,CA,1683502463
574,uzgen,40.7699,73.3007,281.31,80,81,3.19,KG,1683502463
575,basco,20.4487,121.9702,299.96,83,88,5.68,PH,1683502464
576,dompu,-8.5356,118.4622,298.44,94,69,1.2,ID,1683501965
577,kamikawa,43.84,142.7711,279.3,45,100,2.01,JP,1683502464
578,taoudenni,22.6783,-3.9836,308.74,8,77,3.59,ML,1683502464
579,colonia menno,-22.3667,-59.8167,292.16,87,100,5.11,PY,1683502465
580,praia da vitoria,38.7333,-27.0667,293.29,88,75,6.72,PT,1683502465
581,lautoka,-17.6167,177.4667,302.07,74,40,4.12,FJ,1683502465
582,rasskazovo,52.6714,41.9033,273.67,65,36,2.69,RU,1683502465
583,suonenjoki,62.6167,27.1333,278.82,72,100,2.87,FI,1683502466
584,victoria point,-27.5833,153.3,289.92,45,0,3.13,AU,1683502466
